City,Longitude,Latitude,Max Temperature,Humidity,Cloudiness,Wind Speed
merauke,140.3333,-8.4667,86.76,64,100,6.69
yarada,83.2667,17.65,77.32,69,75,2.3
marathon,-89.7668,44.9,12.72,70,0,1.01
punta arenas,-70.9167,-53.15,50.11,76,40,21.85
touros,-35.4608,-5.1989,76.1,79,100,10.0
pandan,124.1694,14.0453,82.94,75,91,9.46
leningradskiy,178.4167,69.3833,-25.1,90,9,3.65
rikitea,-134.9692,-23.1203,78.22,79,4,18.07
caravelas,-39.2481,-17.7125,74.03,93,67,3.38
fougeres,-1.2,48.35,36.68,92,28,2.84
albany,-73.9662,42.6001,7.23,64,4,2.28
zhetysay,68.3,40.7333,35.56,46,0,5.59
bredasdorp,20.0403,-34.5322,63.28,92,25,3.51
taolanaro,54.3667,24.4667,57.31,59,0,5.06
abu dhabi,-159.319,22.0752,76.98,74,75,3.0
kapaa,-50.0119,-24.7911,66.51,90,97,3.13
castro,50.6818,56.5205,1.44,97,99,5.7
malmyzh,-72.225,7.7669,71.78,88,95,1.41
san cristobal,19.2345,-34.4187,64.9,85,22,9.17
hermanus,156.125,50.6789,25.83,67,88,28.79
severo-kurilsk,112.2051,-6.8844,84.69,72,100,12.64
labuhan,-68.3,-54.8,46.63,96,100,3.42
ushuaia,13.2333,52.4,39.4,91,75,3.0
kleinmachnow,-149.2667,-17.8333,78.76,78,45,16.06
teahupoo,-48.5047,-21.4061,70.34,87,52,6.76
taquaritinga,-22.9167,16.1833,68.56,78,100,24.45
sal rei,166.4572,-22.2763,85.98,99,88,16.55
noumea,24.7314,-34.0033,63.88,95,57,3.11
kruisfontein,26.9167,46.9167,31.35,87,96,3.29
nizhneyansk,64.7758,60.1247,7.95,92,100,7.7
roman,-72.3287,42.1584,14.61,62,3,1.95
uray,-60.6733,2.8197,80.58,65,0,10.36
palmer,150.7967,-2.5744,83.91,74,79,7.78
boa vista,-17.1,32.6667,59.0,78,56,6.33
kavieng,-79.2353,42.097,7.72,85,0,6.91
ponta do sol,55.7679,-21.3585,76.55,61,17,7.27
jamestown,147.0587,-42.7826,79.66,35,86,5.93
saint-philippe,33.9365,26.7292,49.66,56,0,11.27
new norfolk,-73.65,-37.6167,57.49,92,3,9.37
safaga,-155.09,19.7297,73.26,77,40,3.44
lebu,-56.1549,72.7868,2.19,86,100,0.76
sentyabrskiy,-100.9599,35.5362,26.19,100,100,11.5
hilo,115.3333,-33.65,79.09,34,0,4.74
upernavik,39.7667,9.85,44.38,62,0,0.54
pampa,166.1,60.4667,24.75,89,100,13.4
busselton,21.5667,-4.85,67.98,90,100,1.48
debre sina,42.4509,18.3851,49.44,58,32,5.57
tilichiki,-3.9836,22.6783,62.6,20,6,10.74
mweka,27.9116,-33.0153,72.54,91,31,3.42
faya,-0.4044,54.2797,51.62,86,100,3.0
marcona,168.3333,-46.6,57.79,60,65,11.88
taoudenni,147.3294,-42.8794,80.02,57,75,4.0
east london,-175.2,-21.2,86.16,84,20,6.91
scarborough,20.5833,-4.3167,69.85,94,100,2.06
bluff,-81.4167,19.3667,78.01,86,3,1.01
hobart,-114.3525,62.456,4.41,98,100,5.61
vaini,-64.8042,-3.2208,72.75,98,97,1.79
ilebo,118.1583,36.1817,37.13,43,99,6.53
west bay,47.9167,63.3667,-0.47,99,96,3.96
yellowknife,46.7102,43.919,32.2,96,100,5.46
alvaraes,-50.2056,-30.1811,74.44,95,100,6.2
nanma,-69.3632,77.484,-8.34,59,73,9.33
blagoyevo,21.7167,-23.4,68.86,67,74,7.05
tabiauea,-139.0333,-9.8,78.91,77,14,19.39
pervomayskoye,-68.7692,-11.0267,76.28,83,100,2.71
cidreira,18.4232,-33.9258,65.26,82,0,1.01
qaanaaq,-51.1,69.2167,12.22,57,100,25.32
manyana,-156.7887,71.2906,-11.18,70,40,17.27
atuona,-37.6368,65.6145,21.36,81,100,5.97
cobija,161.3,68.75,-43.33,99,36,3.96
cape town,-42.0278,-22.9661,75.09,86,10,22.08
ilulissat,147.9167,70.6333,-27.09,95,33,12.59
barrow,-152.4072,57.79,36.91,81,100,12.66
tasiilaq,124.6491,56.6709,-0.65,88,100,11.83
cherskiy,12.6934,67.667,38.12,75,80,6.6
arraial do cabo,-49.8544,-2.0031,74.8,91,100,1.66
chokurdakh,141.9667,-38.2667,74.39,89,50,10.36
kodiak,172.7902,3.0707,82.15,77,16,13.31
neryungri,57.7575,-20.3428,81.21,65,21,11.97
sorland,91.6,55.38,5.56,93,97,0.81
mys shmidta,-97.0167,20.4833,64.44,90,100,6.26
oeiras do para,10.7002,46.6166,30.36,50,77,6.26
codrington,92.75,11.6667,84.24,70,40,9.22
butaritari,-24.4956,14.8961,73.67,72,94,13.56
bambous virieux,-59.5167,13.2167,74.01,88,40,13.8
balakhta,-65.7125,66.1451,-24.43,94,100,5.32
tecolutla,-68.5145,63.7506,-34.38,99,100,2.89
lasa,167.6833,-46.1333,57.81,50,26,7.94
port blair,128.8694,71.6872,-0.15,87,64,15.46
kachikau,104.8667,21.7,75.72,76,85,3.22
sao filipe,-45.2371,60.1432,25.9,95,98,20.18
bathsheba,141.4333,-31.95,99.1,21,9,8.01
pangnirtung,114.0089,4.4148,81.81,78,75,6.91
iqaluit,148.2333,-20.0167,75.87,94,100,5.99
tuatapere,133.0839,42.7297,23.65,46,0,12.37
tiksi,66.3167,51.1,6.4,94,99,5.77
yen bai,45.7622,64.8989,-2.94,100,97,4.79
nanortalik,-76.2167,-13.7,69.85,73,0,13.8
broken hill,-53.2648,47.5999,29.52,91,100,8.01
saleaula,-99.8901,16.8634,78.62,83,20,2.3
miri,105.4635,11.9934,87.96,50,91,2.66
bowen,41.952,52.7106,-4.14,100,100,5.14
vrangel,-171.0,65.5833,-18.13,85,29,4.05
derzhavinsk,168.8643,-46.1927,57.47,41,44,7.96
leshukonskoye,27.2329,-31.7031,65.97,85,72,0.76
pisco,114.6,-28.7667,86.41,48,0,21.85
bay roberts,35.9069,41.5678,33.58,80,19,9.06
acapulco,-122.7002,58.8053,15.24,99,100,0.72
kampong cham,2.3,49.9,41.45,90,100,8.75
platonovka,100.3354,5.4112,87.73,72,20,4.61
lavrentiya,169.8464,-46.2817,58.93,51,59,13.4
mataura,73.5667,2.9167,80.73,66,100,13.8
lady frere,14.4283,27.0377,38.75,56,6,8.37
geraldton,44.5319,-12.2569,80.13,78,90,6.55
bafra,49.8164,7.9803,70.29,70,100,12.91
fort nelson,57.5167,-20.5167,81.36,67,16,11.03
amiens,-58.6502,51.226,-17.03,84,1,8.52
georgetown,-103.8667,22.6,51.8,48,100,2.39
kaitangata,161.9205,-10.4544,78.31,89,100,8.63
muli,-40.2925,-20.3297,74.95,84,0,1.01
sabha,-46.05,60.9167,28.62,69,99,17.65
illoqqortoormiut,30.7978,-30.2067,74.68,79,59,4.45
domoni,35.6947,31.9785,43.38,75,91,15.37
eyl,-156.47,20.8947,75.22,70,20,6.91
souillac,139.9242,53.9353,-1.01,75,27,3.74
dzhusaly,-133.0374,69.4541,-9.67,95,96,16.33
saint-augustin,140.8333,35.7333,54.28,51,94,10.31
huejuquilla el alto,80.5464,73.5069,11.61,92,100,27.72
kirakira,-28.7,38.5167,59.74,81,30,12.73
samusu,122.9,54.05,6.73,63,65,5.66
malwan,-90.3518,-0.7393,73.11,91,98,6.15
vila velha,-120.4579,34.6391,54.93,89,0,3.44
narsaq,-95.5836,33.6668,42.53,39,90,4.23
umkomaas,76.95,52.3,-4.2,84,100,2.24
yarqa,-83.6665,49.6835,15.17,83,100,17.38
kahului,147.2712,-2.0226,83.3,77,97,5.68
mnogovershinnyy,23.3716,-34.0527,65.73,95,64,3.94
tuktoyaktuk,-22.4338,63.8424,30.67,93,0,10.36
hasaki,124.8925,-9.1061,80.82,73,67,7.76
dikson,127.4902,50.2441,9.18,67,2,9.75
ribeira grande,-173.3,64.3833,-3.64,71,40,4.47
urusha,-73.414,41.3712,20.05,64,0,0.0
puerto ayora,67.4497,24.1447,65.52,43,1,3.22
lompoc,114.0833,71.9167,-14.46,93,46,5.44
lamar,72.642,10.5669,77.58,66,91,10.92
pavlodar,82.4311,54.9928,-1.82,76,75,2.24
hearst,-151.75,-16.4833,80.94,77,26,18.61
lorengau,-147.7164,64.8378,-8.99,74,20,0.0
plettenberg bay,-13.0499,20.5169,61.5,53,42,9.28
grindavik,-25.4333,37.7167,58.19,80,18,8.61
atambua,83.6542,48.5722,6.4,94,100,0.69
heihe,170.3133,69.7008,-31.86,98,31,1.92
provideniya,120.875,53.858,4.73,75,69,2.93
bethel,105.7672,56.7938,1.58,94,93,1.34
keti bandar,39.5131,68.0531,13.89,95,86,20.62
saskylakh,121.9,-33.8667,67.59,76,99,11.16
kavaratti,102.5,71.9667,2.01,85,100,13.76
chik,11.85,48.8167,31.41,94,100,4.9
ulyanovo,1.3862,51.3813,44.46,82,97,5.01
faanui,3.9054,46.4154,25.68,100,100,3.44
fairbanks,163.0719,59.2353,18.73,94,100,18.86
atar,-113.5841,37.1041,43.36,39,0,1.99
vila franca do campo,-159.775,-21.2078,82.45,83,75,13.8
kurchum,130.9889,-25.2406,99.63,24,41,1.14
pevek,-1.7981,57.5058,45.0,73,52,31.21
amazar,25.1334,49.2685,29.34,96,100,15.46
barentsburg,9.2036,39.3042,40.48,71,0,8.05
ust-kut,125.4092,-8.9266,73.27,63,87,5.66
ostrovnoy,-27.9833,39.05,58.8,80,38,11.05
esperance,42.052,42.7169,34.05,98,100,3.98
khatanga,82.1838,29.2747,36.9,41,3,1.28
abensberg,108.9833,53.45,-1.52,88,58,4.0
margate,27.5667,53.9,26.35,97,100,10.16
saint-francois,26.891,-33.5906,72.39,92,80,4.09
ossora,77.785,64.9225,-2.72,97,100,12.46
saint george,-44.7825,-2.4489,79.12,99,100,1.68
avarua,-50.4517,-18.4483,75.29,72,98,4.03
yulara,-67.5,-45.8667,58.86,47,0,4.61
peterhead,-147.8028,64.8569,-9.0,73,20,0.0
pidhaytsi,94.7667,28.1667,54.07,90,100,1.59
sinnai,48.3333,-21.2167,74.35,80,30,2.33
airai,23.2406,49.5005,32.23,90,100,14.92
lagoa,71.3667,42.9,25.21,68,0,8.95
jvari,27.2453,31.3525,49.86,60,97,16.6
jumla,39.0186,54.2292,-1.07,100,92,3.83
amderma,-70.0995,41.2835,24.1,57,0,13.8
ust-barguzin,-20.2734,63.4427,37.0,63,74,0.65
minsk,-62.9967,-40.8135,59.59,65,0,1.61
port alfred,34.1331,2.9806,68.67,44,33,9.15
tarko-sale,134.2556,7.0419,82.9,81,100,16.69
bequimao,169.2667,-19.55,83.39,78,100,3.67
samalaeulu,-74.7281,45.0181,-5.15,76,0,0.0
quirinopolis,49.05,-13.2,74.93,89,83,1.86
comodoro rivadavia,73.0833,-0.6,81.93,74,91,21.3
college,-108.2803,32.7701,38.68,47,0,5.01
along,-68.5914,70.4692,-9.17,84,100,19.57
mananjary,-127.4199,50.6996,40.75,75,97,4.16
ralivka,102.2655,-3.8004,82.04,75,100,2.84
taraz,-56.4461,-14.4086,72.86,95,100,3.42
marsa matruh,27.8492,71.0357,25.59,91,100,9.08
mikhaylov,-133.7218,68.3499,-15.09,99,86,5.1
nantucket,60.7756,34.74,42.51,40,1,7.29
vestmannaeyjar,21.2869,29.1081,50.23,64,98,8.23
viedma,6.2642,4.9247,73.06,92,14,3.42
kotido,-63.0578,18.217,76.82,73,65,17.43
grand river south east,-102.6677,51.95,13.26,85,98,16.11
kloulklubed,135.8833,46.4856,8.38,84,100,5.21
isangel,-121.4238,38.421,54.32,75,0,0.0
cornwall,-97.0667,15.85,77.09,69,22,5.48
alotau,-95.7669,39.05,31.95,33,100,4.0
ambilobe,145.7667,-16.9167,85.95,70,100,4.61
hithadhoo,-119.6857,50.8165,26.15,98,57,1.59
silver city,-89.6667,21.2833,74.1,79,37,11.5
clyde river,-137.5108,60.7522,13.24,97,100,1.79
port hardy,146.0333,-17.5333,79.43,87,100,0.18
bengkulu,67.41,59.6481,9.45,88,100,11.1
diamantino,20.2263,30.7554,52.16,65,100,5.53
mehamn,-135.33,57.0531,35.49,80,0,8.05
inuvik,30.7861,59.7035,24.87,93,100,9.98
taybad,133.8633,44.1653,13.15,82,100,6.29
awjilah,77.2406,38.4167,29.48,40,0,1.52
yenagoa,-126.8329,65.282,-1.41,94,65,1.68
the valley,-74.6158,-15.4311,72.5,77,71,3.36
vaitupu,140.3,35.1333,51.91,58,100,11.01
preeceville,-169.9187,-19.0595,82.09,77,21,12.12
vostok,-57.5575,-38.0023,64.09,69,40,5.01
laguna,150.8552,-34.5833,82.18,63,5,5.99
puerto escondido,-73.8203,-41.8697,58.53,76,0,1.03
shawnee,-74.8492,49.7834,-5.19,85,64,13.82
cairns,13.4925,-14.9172,59.76,86,68,2.15
chase,128.1814,-3.6954,89.74,66,20,9.22
progreso,-40.3333,-19.265,69.87,97,36,2.01
haines junction,-61.7485,12.0564,75.96,80,7,9.01
innisfail,10.0,-2.65,75.67,90,93,6.35
kondinskoye,129.4833,28.3667,62.53,73,92,4.09
ajdabiya,-34.8339,-6.9811,78.33,82,87,9.95
sitka,-35.7353,-9.6658,78.24,88,40,5.75
nikolskoye,32.0377,-28.783,73.71,93,51,6.96
chuguyevka,-15.2082,64.2539,30.94,52,100,6.33
shache,-8.3327,40.1629,49.06,77,63,5.44
norman wells,134.2667,-12.0667,88.03,64,97,13.15
acari,150.6667,-10.6167,83.86,75,100,2.51
katsuura,46.3167,-15.7167,75.22,83,20,2.3
alofi,29.1659,-27.4257,55.62,95,66,2.06
mar del plata,-135.0107,68.2191,-9.99,97,100,3.85
flinders,-165.4064,64.5011,-18.33,76,0,0.0
ancud,-87.8328,42.4461,12.88,62,0,14.97
chapais,-59.4307,-34.6515,60.64,65,10,13.73
lubango,49.1816,11.2842,71.37,69,5,2.82
ambon,-75.978,36.8529,32.0,55,0,11.5
rio bananal,12.9164,18.6853,50.13,42,7,8.57
saint-georges,-66.3821,50.2001,-12.84,93,9,7.23
gamba,37.2919,53.7094,3.2,99,98,2.39
naze,22.9573,37.9407,40.68,72,2,2.46
cabedelo,32.907,24.0934,42.75,63,0,11.43
maceio,92.3058,20.8624,75.09,51,0,4.45
richards bay,25.5701,-33.918,66.09,92,100,1.59
hofn,155.8,62.5333,-28.07,98,93,5.39
lata,19.0266,54.0359,40.84,90,100,15.61
maningrida,20.6473,8.4109,69.8,25,100,8.59
samarai,-17.3389,66.0449,22.37,77,100,3.98
mahajanga,153.6833,67.45,-40.92,100,41,2.35
vrede,-83.2333,15.0,76.35,75,70,7.09
aklavik,15.6401,78.2186,6.64,78,75,5.75
nome,20.8333,37.7167,41.59,63,70,3.83
zion,-42.5464,-19.0731,65.41,98,31,1.81
mercedes,73.0,5.6667,79.09,61,100,9.37
bosaso,2.4183,6.3654,75.92,80,0,3.6
virginia beach,-97.8558,55.7435,-12.77,85,85,12.88
bilma,-82.554,35.6009,32.56,67,0,0.0
sept-iles,57.7,-20.4081,81.25,65,17,11.5
toliary,-39.9167,-2.9248,77.2,86,100,10.51
plavsk,-69.2181,-51.6226,55.45,58,0,14.97
kamenskoye,96.1667,27.9167,59.92,72,99,0.87
dekoa,-8.1588,42.0304,37.33,76,0,4.27
corinto,46.4667,14.4,59.11,50,1,1.61
aswan,65.8081,66.8014,5.79,93,100,3.4
teknaf,-81.7165,43.7501,6.91,83,96,20.8
port elizabeth,-84.3833,42.6,8.65,72,0,3.44
omsukchan,-109.9124,22.8909,68.5,65,5,6.24
marienburg,-6.3586,36.6224,55.53,71,0,10.36
ndele,-63.1414,-4.085,71.73,97,57,1.83
husavik,139.5,-20.7333,83.97,84,75,14.97
srednekolymsk,-83.8656,9.8383,63.46,94,93,3.2
iralaya,126.9778,37.5683,40.39,28,66,6.38
longyearbyen,50.2788,-14.9003,76.03,77,67,6.6
lithakia,-56.0861,-9.8756,70.63,98,100,2.84
acucena,116.6379,23.6651,72.45,68,67,2.82
ugoofaaru,-52.95,5.3833,74.52,90,21,5.46
cotonou,144.7333,-37.5833,92.44,52,20,7.0
azimur,-72.4167,-35.3333,56.75,93,7,4.29
thompson,86.1469,41.7597,26.8,53,0,1.48
asheville,-4.5,42.4167,31.8,63,0,4.52
mahebourg,57.7625,-20.2078,81.09,67,21,12.39
itarema,143.3,59.3833,-2.18,77,100,17.36
rio gallegos,34.3804,46.8484,15.91,97,70,5.84
tezu,76.7067,8.7341,83.98,69,100,4.27
vila,-53.6735,66.9395,11.97,76,100,17.43
marzuq,82.4667,65.7,-3.69,97,100,17.52
kharp,130.6434,42.4308,22.91,47,0,17.74
goderich,26.4,46.4333,27.52,85,92,6.8
ingham,113.6333,-24.8667,81.64,58,0,17.74
cabo san lucas,-46.02,-1.195,74.82,94,100,4.03
mahadday weyne,153.5667,-28.8667,80.94,72,21,11.07
rota,-81.7006,12.5847,79.9,72,62,12.12
coari,166.4372,68.0546,-28.3,95,54,2.8
mount isa,16.4712,53.2779,36.1,91,100,15.68
paraiso,14.6357,63.1792,32.45,80,75,6.91
seoul,52.0675,52.5093,1.51,100,97,6.85
antalaha,-124.1573,40.5982,45.93,95,100,1.01
alta floresta,-8.0083,31.6315,46.47,87,40,3.44
chaozhou,-35.2094,-5.795,75.85,94,20,3.44
sinnamary,104.0833,49.0333,1.6,81,12,3.22
sunbury,144.3747,42.975,27.55,86,75,9.22
constitucion,-84.5333,39.1834,17.78,69,0,1.01
korla,-36.4344,-10.4056,76.96,84,20,6.82
litoral del san juan,47.8045,35.1664,26.87,90,18,8.08
palencia,-7.5406,43.2686,35.58,99,28,1.77
quatre cocos,81.1185,6.1241,78.26,67,100,10.71
okhotsk,-1.1494,60.1545,41.0,76,100,34.78
tabukiniberu,-10.0467,5.8808,78.06,84,14,3.69
nyzhni sirohozy,-10.0711,20.5022,61.3,17,19,5.66
varkkallai,-85.85,16.45,77.0,72,1,13.27
sisimiut,-10.7969,6.3005,78.39,79,15,2.15
krasnoselkup,39.8261,21.4267,61.84,54,70,15.35
belushya guba,-63.1667,-17.8,78.26,89,40,10.36
khasan,100.4517,38.9342,24.91,33,100,2.37
attawapiskat,57.5281,65.9939,9.39,96,93,10.49
asau,83.319,55.2093,-3.01,100,97,4.74
carnarvon,150.1833,-35.7167,89.2,52,27,15.39
carutapera,29.6619,-8.4689,67.5,89,100,3.09
ballina,-53.4616,-33.6971,69.87,86,92,18.19
san andres,16.1194,69.3143,30.18,86,100,6.91
bilibino,71.7189,40.4272,33.22,64,0,4.61
walcz,-79.1469,-7.8447,66.74,74,99,4.65
ostersund,-14.0333,10.1667,71.51,88,61,2.26
kurmanayevka,80.4167,5.9667,79.65,68,100,3.36
fortuna,136.6319,50.7214,4.69,90,100,4.05
marrakesh,-77.9447,34.2257,34.86,65,0,9.22
natal,-75.833,42.2506,4.66,77,11,1.01
erdenet,76.0667,22.1833,60.08,38,0,7.99
kushiro,-105.2,20.7,70.23,88,20,0.0
hamilton,73.7614,43.5983,31.05,54,1,2.28
piacabucu,58.1014,52.9933,12.56,99,100,4.56
qorveh,-25.6667,37.7333,58.5,62,75,9.22
bereda,-91.917,50.1001,20.07,92,100,13.31
hambantota,-105.5731,36.4072,23.45,82,75,3.44
lerwick,-49.7269,-29.3353,77.83,96,100,7.76
buchanan,-82.9887,35.4887,32.74,67,1,1.01
adrar,27.6208,-28.3197,63.14,71,100,6.51
savannah bight,91.6419,48.0056,-6.7,82,98,2.19
monrovia,-97.5169,28.017,55.38,77,88,9.89
mecca,-39.2208,-17.3411,74.86,91,74,3.98
santa cruz,-0.1919,54.0831,50.29,90,100,21.81
zhangye,-124.25,54.4333,25.68,97,100,1.99
usinsk,34.6328,51.3392,0.07,100,70,2.66
sokur,80.0401,7.4688,80.11,60,99,4.94
batemans bay,-13.564,29.0605,55.62,72,0,6.91
kaputa,45.3438,2.0371,74.46,80,8,13.31
chuy,145.5167,-37.65,93.85,59,97,1.01
babanusah,152.35,-24.85,84.49,66,100,1.99
andenes,10.45,51.2167,37.29,86,100,14.63
komsomolskiy,97.2,40.2833,24.87,35,90,10.0
chicama,-77.6139,-11.0964,70.93,83,94,9.73
boffa,84.0833,27.1,57.88,60,0,5.28
weligama,13.84,-18.0607,70.47,67,65,3.6
solnechnyy,-96.167,41.3,31.93,45,0,7.0
wilmington,29.0864,70.8578,23.0,80,100,13.02
sidi bu zayd,76.6333,66.0833,-2.92,98,100,9.44
broome,57.3631,-20.2742,81.52,67,17,10.13
sanawad,108.0108,61.2767,-8.09,96,100,4.9
ixtapa,86.5833,67.4667,-4.7,97,100,22.84
shu,152.9167,-31.4333,76.89,63,51,11.05
temyasovo,-75.2829,-11.9472,46.24,87,100,1.1
ponta delgada,127.4739,63.9242,-18.67,90,100,3.44
sioux lookout,-78.1522,-10.0681,72.23,80,100,8.12
taos,12.1522,-15.1961,75.6,83,100,3.2
torres,118.5667,-20.3167,93.25,59,4,16.11
waynesville,-17.9182,28.6585,55.13,75,75,8.01
senekal,133.8833,-23.7,92.75,43,40,10.36
hovd,-59.7968,3.3803,79.68,64,84,10.94
san patricio,-68.0591,-38.9516,69.69,40,0,4.61
prado,117.8517,30.634,39.85,97,100,5.93
bridlington,-98.2023,32.2207,46.49,43,100,3.44
fort saint james,-82.5271,33.194,44.11,69,17,10.4
glushkovo,150.9,-32.2667,82.51,49,98,2.55
kuliyapitiya,38.1404,63.9061,17.71,92,100,7.27
teguise,141.3028,-2.6741,82.85,80,89,1.77
mogadishu,-2.9779,53.4106,51.76,93,100,8.01
healesville,15.1594,-26.6481,66.94,75,3,19.55
bundaberg,32.2268,-17.397,62.04,98,99,3.38
muhlhausen,113.5678,22.2769,72.99,83,20,5.75
yumen,14.1562,57.7814,43.39,100,100,16.11
hualmay,53.0043,56.5567,8.51,95,100,7.02
bagaha,-40.4308,-13.4411,63.16,96,67,4.65
hihifo,139.9,69.3,-8.91,97,100,5.28
aflu,-56.7131,-2.1861,73.71,97,100,2.1
opuwo,64.6667,65.3667,10.96,96,100,4.07
douglas,-71.1419,21.4612,77.47,74,0,12.86
jaipur hat,-1.7554,4.8845,77.41,88,1,4.23
berlevag,78.4932,30.6945,41.67,25,2,3.85
karaul,-117.136,58.5169,6.33,99,49,2.39
novyy urengoy,-72.266,11.7139,73.44,78,4,5.19
flic en flac,13.5456,-12.3481,76.08,84,98,1.36
yerbogachen,-57.7528,-6.2222,73.18,93,100,0.72
igarka,-54.9167,-34.6667,65.59,70,94,15.52
port macquarie,-16.3333,33.0833,54.82,77,75,11.5
san jeronimo,24.1833,-7.5667,64.74,97,100,3.02
sangar,-50.5969,-17.8136,71.47,82,43,4.43
crab hill,-99.7331,32.4487,34.29,75,100,0.0
huarmey,66.2693,56.3109,10.71,89,96,11.54
namibe,16.4333,-28.55,63.52,87,91,15.17
port hedland,-47.9967,-21.9547,65.73,91,46,4.14
los llanos de aridane,9.2618,-1.5746,76.95,88,95,6.44
alice springs,-105.2842,55.1001,1.65,71,0,9.22
lethem,87.9869,52.9209,12.52,89,98,2.08
neuquen,-6.8119,61.4732,38.89,71,96,28.61
rongcheng,34.5333,10.0667,60.98,46,93,5.7
stephenville,-52.7314,47.6666,28.76,94,100,14.97
avera,122.8766,-0.9131,84.11,69,94,2.17
muswellbrook,152.4333,-3.6667,84.43,73,65,5.48
sataua,114.9675,-8.19,85.91,66,100,4.21
onega,80.4392,47.9714,2.07,99,100,2.3
vanimo,105.7667,19.8,78.75,64,51,6.53
liverpool,-77.7667,-10.75,70.97,80,91,6.91
luderitz,-15.8333,11.2833,78.37,62,81,6.8
mutoko,7.3853,18.7369,55.35,29,12,7.23
zhuhai,48.0851,53.2841,-7.76,100,71,2.26
jonkoping,1.0114,20.1986,58.3,27,90,14.67
malaya purga,24.8228,65.8596,20.97,93,100,5.75
maracas,-6.3865,58.2093,42.93,76,75,7.0
deputatskiy,-3.1392,37.2993,45.3,63,100,9.55
nhamunda,-74.3646,39.4101,23.02,63,0,0.0
muzhi,22.2247,-10.7073,64.2,96,100,2.95
cockburn town,-86.9458,20.5083,75.94,90,50,7.38
takoradi,-52.0986,-32.035,75.31,91,100,16.42
ginda,149.2,-21.15,81.68,73,100,14.9
high level,-73.8836,9.9689,80.38,59,81,2.46
uribia,-4.6167,48.3833,37.72,100,100,8.05
lobito,39.7139,47.2364,24.89,98,79,2.62
lolua,-124.1637,40.8021,46.2,91,0,4.29
jacareacanga,-115.95,30.4833,57.72,70,95,7.02
maldonado,104.9833,22.8333,74.25,79,78,4.34
camacha,-70.1979,-22.092,67.48,72,21,0.16
kaniama,-59.5333,13.0667,73.49,88,40,13.8
ust-bolsheretsk,27.873,62.3153,26.31,96,100,6.02
santa helena de goias,7.184,43.7894,47.3,82,40,11.5
abilene,159.2333,61.95,10.4,91,100,16.17
uporovo,26.6708,40.4103,26.46,69,16,2.39
oranjemund,164.0167,-20.2333,81.54,75,25,12.5
ibate,32.8739,67.9397,7.65,97,99,5.97
omboue,-57.0883,-29.7547,78.73,78,100,17.27
la ronge,42.9566,41.9563,29.77,99,100,0.38
sheregesh,145.575,43.3236,27.03,88,100,17.34
vagur,-122.4286,37.4636,57.31,75,0,0.0
asosa,105.6667,18.6667,76.89,71,60,2.3
torbay,121.4443,17.4189,78.42,84,98,4.41
biak,107.0843,10.346,81.68,67,10,2.98
namatanai,34.8389,-19.8436,78.89,94,75,5.75
banjar,23.0412,69.0125,3.36,98,100,1.7
ayagoz,30.3705,50.3891,21.16,79,0,2.24
thanh hoa,44.7417,43.0645,24.94,100,100,2.24
barranca,-68.5364,-31.5375,74.44,58,89,23.29
bubaque,122.5276,-4.9408,89.58,54,100,5.64
tsihombe,3.3168,14.3521,60.96,17,29,12.75
arlit,-84.3167,15.5,71.19,88,11,2.21
balasheyka,100.3543,-0.9492,87.85,64,100,1.48
tessalit,88.3972,69.4865,1.2,96,100,15.05
kemi,-93.218,45.0205,29.82,75,100,5.01
stornoway,-42.8192,-14.9261,65.98,94,45,3.4
guadix,36.5345,61.8099,16.65,87,100,6.87
brigantine,51.8794,32.0339,41.14,75,15,7.07
luau,43.975,26.326,50.45,35,0,14.38
saryshagan,18.9667,-22.45,69.19,56,63,8.12
cozumel,79.1667,52.2667,-3.1,100,98,5.39
rio grande,-70.4,-23.65,63.68,82,17,3.09
mackay,54.0924,17.0151,69.51,54,0,1.66
bosconia,135.8049,34.6851,49.98,39,92,8.37
plouzane,-38.9472,-15.675,75.16,90,97,2.84
rostov-na-donu,-49.6725,-3.7661,73.63,95,100,2.75
eureka,72.9667,3.7833,79.93,66,87,11.72
san quintin,9.6134,1.574,78.15,86,85,6.4
ha giang,150.1667,59.7,-2.99,76,100,10.33
tocopilla,-73.5167,-4.6667,72.39,97,26,0.38
oistins,81.75,22.6667,53.47,42,1,3.53
varkaus,-2.5,42.25,33.12,44,0,4.97
carros,29.5355,3.0372,66.11,46,95,1.83
evensk,83.9714,56.2589,-5.15,100,96,3.31
gallipoli,-119.1951,34.1478,63.52,72,0,4.61
poum,95.6,51.5,-7.04,94,98,2.1
zhanatas,-34.8553,-8.0089,80.33,83,40,8.05
monchegorsk,-6.589,62.2266,34.72,69,100,29.19
uruguaiana,60.4153,60.8697,4.91,92,96,0.51
khani,-54.3069,-24.0625,73.09,91,72,1.3
nemuro,53.2333,56.85,8.13,89,100,7.47
half moon bay,-84.8966,38.0373,17.76,74,0,0.0
vinh,-11.9,11.5833,63.27,18,56,2.75
tabuk,155.5367,-6.2132,81.37,83,98,2.8
vung tau,141.9525,39.6367,40.12,46,24,11.1
laiagam,-6.5802,34.261,56.73,79,97,3.89
beira,-1.9473,5.3617,73.0,98,10,0.89
kautokeino,140.7667,-37.8333,87.4,46,13,12.41
vyshneve,13.4055,-12.5763,75.94,86,99,0.45
oktyabrskoye,-10.6125,6.4461,73.92,92,11,2.3
san juan,13.5031,68.1214,37.22,74,96,7.92
katobu,50.8122,9.4942,71.87,70,92,13.67
filingue,107.6,16.4667,80.71,69,20,4.61
paptalaya,40.5178,-12.974,77.7,83,100,8.05
padang,90.3914,56.0064,-0.87,100,76,1.79
talnakh,22.5667,62.7333,30.76,100,100,9.22
grand centre,-72.0662,-45.5752,55.35,76,0,3.44
saint anthony,20.8667,-0.2167,70.02,90,100,2.28
sofiysk,-127.1743,54.7804,23.32,100,40,4.61
espinosa,34.7642,31.61,49.08,100,90,25.55
pudozh,75.2,18.4167,66.18,35,1,9.17
galiwinku,114.5636,29.0361,43.0,92,100,4.0
shahreza,-52.3333,4.9333,75.24,94,75,3.44
buraydah,85.85,19.8,68.52,53,0,13.06
gobabis,-54.3833,4.25,70.77,99,87,2.17
klyuchi,8.834,63.7256,38.89,95,100,4.23
antofagasta,81.4808,6.7989,79.07,61,85,7.78
salalah,119.7,49.2,-4.4,94,99,5.79
nara,20.2189,69.5763,26.69,80,100,3.87
canavieiras,-121.6555,36.6777,54.97,88,75,0.0
tucurui,141.2906,-6.1219,72.61,97,100,2.01
mahibadhoo,-49.6678,61.994,14.18,71,100,10.27
mbini,-118.8284,35.2091,58.01,31,0,7.67
arman,114.53,51.1,3.04,82,33,7.23
saquena,37.1735,49.6959,1.26,100,98,2.84
amarkantak,127.7558,26.1842,73.06,68,100,9.22
la rioja,17.0287,54.4641,39.42,88,100,20.33
palabuhanratu,-105.3505,40.0833,27.63,65,0,1.99
watsa,-38.3911,-3.9014,81.18,88,100,8.34
kozhevnikovo,10.6554,-3.432,75.97,89,82,4.14
port hueneme,121.0667,6.0667,85.17,70,97,9.66
saryg-sep,-23.7142,64.8945,34.3,61,100,6.85
olinda,121.36,28.3669,52.14,89,100,15.12
klaksvik,-100.5299,26.0011,59.25,90,76,2.75
polunochnoye,125.4808,12.2188,82.31,73,66,13.87
salto del guaira,72.0484,23.1225,59.23,37,0,11.05
izhevsk,121.9702,20.4487,75.11,84,100,22.06
lawrenceburg,137.7667,-32.5,102.7,27,0,6.85
koubia,-52.3158,3.1655,70.2,99,71,2.08
arawa,173.1667,-35.1667,71.28,55,0,15.99
miyako,41.6925,13.9297,76.98,63,0,12.17
kenitra,167.4833,-22.6667,78.26,83,76,18.21
aboso,6.0,44.6667,19.83,61,1,5.68
mount gambier,-90.4801,30.0666,48.18,61,0,1.99
benguela,70.8333,66.8333,7.9,93,100,9.84
bensonville,5.7357,60.5528,43.92,100,100,6.58
gravdal,165.4833,-21.5667,82.71,70,76,12.93
bandarbeyla,14.5053,-22.9575,66.09,94,30,2.3
hue,6.1333,62.5833,41.11,100,100,21.85
pemba,126.5842,7.4525,81.48,81,84,4.61
nazarovo,110.3,54.3,-5.69,95,75,1.41
ilmajoki,-122.6762,45.5234,41.09,75,20,1.99
coihaique,-46.3003,-9.4467,71.22,90,79,3.4
bargal,-54.3333,-34.4833,66.15,77,100,16.4
boende,114.1577,22.2855,73.96,84,41,1.01
smithers,16.7667,60.6167,29.95,88,83,6.78
gat,-97.1147,31.4677,47.8,55,100,3.0
karmala,18.7333,-28.45,80.02,26,8,6.62
yining,109.4833,30.3,40.44,99,100,0.81
cayenne,29.9847,69.6672,16.14,86,75,4.61
puri,130.85,45.8,12.22,81,66,13.42
grand-santi,36.9333,-4.2,59.58,96,55,2.39
sistranda,152.2633,-4.352,85.51,67,98,8.05
wattegama,37.8691,50.7631,-4.13,100,100,1.81
hailar,35.9903,50.6236,-2.34,100,99,3.36
lyngseidet,79.922,27.0546,54.5,67,0,7.52
salinas,134.15,33.2833,55.44,58,65,4.94
kiunga,135.9833,33.7333,54.59,44,99,3.27
paamiut,-115.7999,60.8156,13.98,85,100,2.3
arvin,57.6608,-20.0064,81.37,59,17,5.99
aginskoye,55.4107,31.6128,54.81,40,0,12.55
shevchenkove,123.9167,53.9833,2.17,69,61,5.1
nishihara,72.8944,2.6708,80.1,68,98,14.43
slupsk,64.4101,28.8947,45.79,34,0,6.73
boulder,-50.1214,-18.8386,73.74,81,96,6.33
aquiraz,5.5868,7.1962,65.82,72,28,1.21
mayumba,-71.3436,-29.9533,60.53,82,0,8.05
